{
   "data":[
      {
         "name":"Hamster Blog",
         "image":"",
         "latitude":"16.91026366216617",
         "longitude":"96.15974775384093",
         "state":"ရန်ကုန်",
         "township":"မြောက်ဥက္ကလာပမြို့နယ်",
         "phone":"09443022245, 09694416991, 09757453062",
         "address":"ဆ/၁၂၊ ခေမာသီ ၁ လမ်း၊ ဈ-ဈေးအနီး၊ မြောက်ဥက္ကလာပမြို့နယ်။",
         "facebook":"",
         "remark":"",
         "rating":""
      },
      {
         "name":"De De Pet Shop",
         "image":"",
         "latitude":"16.91026366216617",
         "longitude":"96.15974775384093",
         "state":"ရန်ကုန်",
         "township":"",
         "phone":"09253385045",
         "address":"ဆ/၁၂၊ ခေမာသီ ၁ လမ်း၊ ဈ-ဈေးအနီး၊ မြောက်ဥက္ကလာပမြို့နယ်။",
         "facebook":"",
         "remark":"",
         "rating":""
      },
      {
         "name":"Dear Pet- Pet Food & Accessories",
         "image":"",
         "latitude":"16.903237104503553",
         "longitude":"96.10610246453739",
         "state":"ရန်ကုန်",
         "township":"အင်းစိန်မြို့နယ်",
         "phone":"095092505",
         "address":"အမှတ် ၂၅/ခ၊ မင်းကြီးလမ်း(ဟိုက်ပတ်မှတ်တိုင်အနီး)၊ အင်းစိန်မြို့နယ်",
         "facebook":"www.facebook.com/dearpet2021",
         "remark":"",
         "rating":""
      },
      {
         "name":"Lucky Fish Pet Shop",
         "image":"",
         "latitude":"16.893710646155107",
         "longitude":"96.17236375563213",
         "state":"ရန်ကုန်",
         "township":"",
         "phone":"095167661",
         "address":"No.198 Mahar Swe street, Hlaing (13) Ward, Yangon",
         "facebook":"",
         "remark":"",
         "rating":""
      },
      {
         "name":"MyPet Alone",
         "image":"https://static.wixstatic.com/media/9f17e6_5e4ddea08b684d029e6b57e12d249a15~mv2.jpg/v1/crop/x_0,y_211,w_714,h_324/fill/w_340,h_154,al_c,q_80,usm_0.66_1.00_0.01/viber_image_2021-05-07_18-22-45.webp",
         "latitude":"16.859542845005763",
         "longitude":"96.143524645286",
         "state":"ရန်ကုန်",
         "township":"အလုံမြို့နယ်",
         "phone":"09740868682",
         "address":"No. 162/1, Lower Kyimyindine Road, Ahlone Tsp, Yangon",
         "facebook":"www.facebook.com/mypetmyanmar",
         "remark":"",
         "rating":""
      },
      {
         "name":"MyPet Parami",
         "image":"https://static.wixstatic.com/media/9f17e6_5e4ddea08b684d029e6b57e12d249a15~mv2.jpg/v1/crop/x_0,y_211,w_714,h_324/fill/w_340,h_154,al_c,q_80,usm_0.66_1.00_0.01/viber_image_2021-05-07_18-22-45.webp",
         "latitude":"16.859542845005763",
         "longitude":"96.143524645286",
         "state":"ရန်ကုန်",
         "township":"မရမ်းကုန်းမြို့နယ်",
         "phone":"09740868684",
         "address":"No. 4B, Parami Road, Chawtwinkone, Mayangone Tsp, Yangon",
         "facebook":"www.facebook.com/mypetmyanmar",
         "remark":"",
         "rating":""
      },
      {
         "name":"MyPet Bahan",
         "image":"https://static.wixstatic.com/media/9f17e6_5e4ddea08b684d029e6b57e12d249a15~mv2.jpg/v1/crop/x_0,y_211,w_714,h_324/fill/w_340,h_154,al_c,q_80,usm_0.66_1.00_0.01/viber_image_2021-05-07_18-22-45.webp",
         "latitude":"16.859542845005763",
         "longitude":"96.143524645286",
         "state":"ရန်ကုန်",
         "township":"ဗဟန်းမြို့နယ်",
         "phone":"09740868681",
         "address":"No. 4B, Parami Road, Chawtwinkone, Mayangone Tsp, Yangon",
         "facebook":"www.facebook.com/mypetmyanmar",
         "remark":"",
         "rating":""
      },
      {
         "name":"MyPet Thuwunna",
         "image":"https://static.wixstatic.com/media/9f17e6_5e4ddea08b684d029e6b57e12d249a15~mv2.jpg/v1/crop/x_0,y_211,w_714,h_324/fill/w_340,h_154,al_c,q_80,usm_0.66_1.00_0.01/viber_image_2021-05-07_18-22-45.webp",
         "latitude":"16.859542845005763",
         "longitude":"96.143524645286",
         "state":"ရန်ကုန်",
         "township":"သင်္ဃန်းကျွန်းမြို့နယ်",
         "phone":"09740868683",
         "address":"Lay Daunt Kan Main Road, Between Thu Nandar & Thudamar Near Zawana, Thaingangyun, Yangon",
         "facebook":"www.facebook.com/mypetmyanmar",
         "remark":"",
         "rating":""
      },
      {
         "name":"iPet Pet Food & Accessories",
         "image":"https://lh5.googleusercontent.com/p/AF1QipPxWxHKXK8-nI00aC3RCdKP21s7kWTrGTfjebJY=w426-h240-k-no",
         "latitude":"16.856257153862057",
         "longitude":"96.16034745965459",
         "state":"ရန်ကုန်",
         "township":"",
         "phone":"09962040610",
         "address":"ပါရမီလမ်း, ရန်ကုန်",
         "facebook":"",
         "remark":"",
         "rating":""
      },
      {
         "name":"Nay Pyi Taw Pet Mart",
         "image":"https://lh5.googleusercontent.com/p/AF1QipOcX4L6mDqxJ6XBokZvEdNVm5j9oEWAuPuB50f3=w408-h725-k-no",
         "latitude":"16.852314249130657",
         "longitude":"96.17957353321867",
         "state":"ရန်ကုန်",
         "township":"တောင်ဥက္ကလာပမြို့နယ်",
         "phone":"095181281",
         "address":"1230 ThitSar Road, South Okkalapa Tsp, Yangon",
         "facebook":"www.facebook.com/yelinaungmyanmar",
         "remark":"",
         "rating":""
      },
      {
         "name":"iPet",
         "image":"https://lh5.googleusercontent.com/p/AF1QipPVp9O7YZcq6h3HYuw3900GF5GryVjjFGPkXouM=w408-h306-k-no",
         "latitude":"16.84541396776918",
         "longitude":"96.1742520307202",
         "state":"ရန်ကုန်",
         "township":"တောင်ဥက္ကလာပမြို့နယ်",
         "phone":"09777717131",
         "address":"ဝေဇယန္တာလမ်း, ရန်ကုန်",
         "facebook":"",
         "remark":"",
         "rating":""
      },
      {
         "name":"iPet",
         "image":"https://lh5.googleusercontent.com/p/AF1QipPVp9O7YZcq6h3HYuw3900GF5GryVjjFGPkXouM=w408-h306-k-no",
         "latitude":"16.84541396776918",
         "longitude":"96.1742520307202",
         "state":"ရန်ကုန်",
         "township":"ရန်ကင်းမြို့နယ်",
         "phone":"09777717131",
         "address":"No24B, Parami Rd, Chawtwinkone, Yankin, Yangon",
         "facebook":"",
         "remark":"",
         "rating":""
      },
      {
         "name":"Shwe Myint Mo - Pet Foods & Accessories Shop",
         "image":"https://lh5.googleusercontent.com/p/AF1QipOrOddS2Bvtop5kdxYp8_nZzyACYhK57fTbs4mN=w408-h306-k-no",
         "latitude":"16.850178474435022",
         "longitude":"96.20532273889073",
         "state":"ရန်ကုန်",
         "township":"",
         "phone":"09420155005",
         "address":"ရန်ကုန်",
         "facebook":"",
         "remark":"",
         "rating":""
      },
      {
         "name":"Annie pet accessories house",
         "image":"https://lh5.googleusercontent.com/p/AF1QipOBW5GarrVggZDdTA39E05A56qt4jjO_mBPQUc1=w426-h240-k-no",
         "latitude":"16.836213201633015",
         "longitude":"96.18712663355328",
         "state":"ရန်ကုန်",
         "township":"",
         "phone":"0943033292",
         "address":"Thumana 1st, street 16/1, Yangon",
         "facebook":"",
         "remark":"",
         "rating":""
      },
      {
         "name":"TCO - Pet Food & Accessories",
         "image":"",
         "latitude":"16.833091411525462",
         "longitude":"96.20394944792184",
         "state":"ရန်ကုန်",
         "township":"",
         "phone":"",
         "address":"Thadar Road, Yangon",
         "facebook":"",
         "remark":"",
         "rating":""
      },
      {
         "name":"Me-O pet food -Famous",
         "image":"",
         "latitude":"16.808608220353804",
         "longitude":"96.17614030541667",
         "state":"ရန်ကုန်",
         "township":"",
         "phone":"095141601",
         "address":"58 သမ္မာဒိဋ္ဌိလမ်း, ရန်ကုန်",
         "facebook":"",
         "remark":"",
         "rating":""
      },
      {
         "name":"Hello",
         "image":"https://lh5.googleusercontent.com/p/AF1QipOQ_VZgxRuXhnAS0YUBDHbonbzcAzIWMDSOJPC5=w408-h725-k-no",
         "latitude":"16.809429855192878",
         "longitude":"96.15622758636816",
         "state":"ရန်ကုန်",
         "township":"",
         "phone":"095166403",
         "address":"ရန်ကုန်",
         "facebook":"",
         "remark":"",
         "rating":""
      },
      {
         "name":"Puppy Pet Supply",
         "image":"",
         "latitude":"16.802199346466768",
         "longitude":"96.13597154457742",
         "state":"ရန်ကုန်",
         "township":"",
         "phone":"",
         "address":"",
         "facebook":"",
         "remark":"",
         "rating":""
      },
      {
         "name":"Boodi Pet Accessories",
         "image":"",
         "latitude":"16.797433633241834",
         "longitude":"96.12498521682653",
         "state":"ရန်ကုန်",
         "township":"",
         "phone":"09961299844",
         "address":"No.5 ထီးတန်းလမ်း, ရန်ကုန်",
         "facebook":"",
         "remark":"",
         "rating":""
      },
      {
         "name":"Micro Hamster Supplies",
         "image":"",
         "latitude":"16.780013111889254",
         "longitude":"96.1394047719996",
         "state":"ရန်ကုန်",
         "township":"",
         "phone":"",
         "address":"5 Street ,B Block Yuzana Garden City, Yangon, 11451",
         "facebook":"",
         "remark":"",
         "rating":""
      },
      {
         "name":"Pets Fashion Online Shop",
         "image":"https://lh5.googleusercontent.com/p/AF1QipPzlcKNqeDWZ1Whqjbo-lxOx0uXiUmRtmZoLYnv=w408-h345-k-no",
         "latitude":"16.806389788673158",
         "longitude":"96.17768525783555",
         "state":"ရန်ကုန်",
         "township":"",
         "phone":"09796174922",
         "address":"No. 9 ဣစ်ဆာသယလမ်း, ရန်ကုန်",
         "facebook":"",
         "remark":"",
         "rating":""
      },
      {
         "name":"Power Cat",
         "image":"https://lh6.googleusercontent.com/8FCHZ01hajMg9e7tlgH0NNAK3vLeqU3JYH63nZcs7qQ_emtZSW-j1GjB_hVASxgR=w426-h240-k-no",
         "latitude":"16.802610178373165",
         "longitude":"96.17759942715",
         "state":"ရန်ကုန်",
         "township":"",
         "phone":"095199249",
         "address":"No. 36, Au Bhar street, Yangon",
         "facebook":"",
         "remark":"",
         "rating":""
      },
      {
         "name":"The Cute House",
         "image":"",
         "latitude":"16.778533937271604",
         "longitude":"96.16352319450581",
         "state":"ရန်ကုန်",
         "township":"",
         "phone":"09778213930",
         "address":"154 ဆိပ်ကမ်းသာလမ်း, ရန်ကုန်",
         "facebook":"",
         "remark":"",
         "rating":""
      },
      {
         "name":"Excellent Aquarium",
         "image":"https://lh3.googleusercontent.com/__PYqakgrvzMLWyeKeBj5WwMJBXqmPCRFMv8zE8KWRwgdWWuQEoa7riO6D6ZJ5fD=w408-h306-k-no",
         "latitude":"16.780917046005182",
         "longitude":"96.16884469701014",
         "state":"ရန်ကုန်",
         "township":"",
         "phone":"095599977",
         "address":"150, ဗိုလ်ချုပ်လမ်း, ရန်ကုန်",
         "facebook":"",
         "remark":"",
         "rating":""
      },
      {
         "name":"Hi Pet Accessories",
         "image":"https://lh5.googleusercontent.com/p/AF1QipN8_rIf95J__OF3RwPSOswkO8G-gYBtqmhR3rsA=w426-h240-k-no",
         "latitude":"16.778533937271604",
         "longitude":"96.16961717318014",
         "state":"ရန်ကုန်",
         "township":"",
         "phone":"01201743",
         "address":"173 ၄၈ လမ်း, ရန်ကုန်",
         "facebook":"",
         "remark":"",
         "rating":""
      },
      {
         "name":"Golden Triangle Pet Shop",
         "image":"https://lh5.googleusercontent.com/p/AF1QipPdnZ8cwvyEKkde411QVXF4Xuwm4KhfKIGeBJmw=w408-h306-k-no",
         "latitude":"",
         "longitude":"",
         "state":"ရန်ကုန်",
         "township":"",
         "phone":"09428011455",
         "address":"No.(22-A), Shukhinthar Mayopat Road, Corner of Myoma Street 16, Thaketa, Yangon 11231",
         "facebook":"",
         "remark":"",
         "rating":""
      },
      {
         "name":"Akari - ဧကရီ Pet & Accessories Shop",
         "image":"",
         "latitude":"16.789298777263237",
         "longitude":"96.207897660115",
         "state":"ရန်ကုန်",
         "township":"",
         "phone":"09455504277",
         "address":"Shukhinthar Mayopat Road, Yangon",
         "facebook":"",
         "remark":"",
         "rating":""
      },
      {
         "name":"23 Lucky Bunnies Family",
         "image":"https://lh5.googleusercontent.com/p/AF1QipPgyRVQCuq5ugk4iF0No9fQUI1bDZYN631CuQgw=w408-h548-k-no",
         "latitude":"16.83662395858005",
         "longitude":"96.24008416719768",
         "state":"ရန်ကုန်",
         "township":"",
         "phone":"",
         "address":"Sithu Street, Yangon",
         "facebook":"",
         "remark":"",
         "rating":""
      },
      {
         "name":"Pet Zone",
         "image":"",
         "latitude":"16.803688606551688",
         "longitude":"96.13019406677518",
         "state":"ရန်ကုန်",
         "township":"",
         "phone":"09409000138",
         "address":"No 120 (A) ဗားကရာလမ်းနှင့် ဗဟိုလမ်းထောင့်၊ ရန်ကုန်။",
         "facebook":"",
         "remark":"",
         "rating":""
      },
      {
         "name":"Bumblebee",
         "image":"https://lh5.googleusercontent.com/p/AF1QipME481Np_vITfnt0wvNFTOqoqq-mmwGFGE7td5-=w408-h306-k-no",
         "latitude":"16.903827358012176",
         "longitude":"96.16138815723363",
         "state":"ရန်ကုန်",
         "township":"မြောက်ဥက္ကလာပမြို့နယ်",
         "phone":"09423438877",
         "address":"မေဓာဝီလမ်းမကြီး၊ မြောက်ဥက္ကလာပမြို့နယ်၊ ရန်ကုန်။",
         "facebook":"",
         "remark":"",
         "rating":""
      }
   ]
}
